[
  {
    "nom": "ABC FORMATION",
    "adresse": "82 Avenue de Verdun, 95310, SAINT-OUEN L'AUMONE",
    "latitude": 49.0408329,
    "longitude": 2.1049814,
    "url_contact": "https://francais.cci-paris-idf.fr/inscription-candidat/contact/980/23",
    "url_inscription": "https://francais.cci-paris-idf.fr/inscription-candidat/centre-980/produit-23"
  },
  {
    "nom": "ALZER",
    "adresse": "18 place des Nymphéas, HQ Tropical Centre., 93420, Villepinte",
    "latitude": 48.973858,
    "longitude": 2.510726,
    "url_contact": "https://francais.cci-paris-idf.fr/inscription-candidat/contact/850/23",
    "url_inscription": "https://francais.cci-paris-idf.fr/inscription-candidat/centre-850/produit-23"
  },
  {
    "nom": "ALZER",
    "adresse": "Tour Europa - Avenue de l’Europe - 6ème étage, 94320, Thiais",
    "latitude": 48.7572509,
    "longitude": 2.3691163,
    "url_contact": "https://francais.cci-paris-idf.fr/inscription-candidat/contact/851/23",
    "url_inscription": "https://francais.cci-paris-idf.fr/inscription-candidat/centre-851/produit-23"
  },
  {
    "nom": "CECI Formation",
    "adresse": "2 rue des Buisses, 59800, Lille",
    "latitude": 50.637382,
    "longitude": 3.069352,
    "url_contact": "https://francais.cci-paris-idf.fr/inscription-candidat/contact/951/23",
    "url_inscription": "https://francais.cci-paris-idf.fr/inscription-candidat/centre-951/produit-23"
  },
  {
    "nom": "KANGOUROU PROVENCE",
    "adresse": "7 rue de Dijon, 06000, Nice",
    "latitude": 43.7069049,
    "longitude": 7.2627898,
    "url_contact": "https://francais.cci-paris-idf.fr/inscription-candidat/contact/865/23",
    "url_inscription": "https://francais.cci-paris-idf.fr/inscription-candidat/centre-865/produit-23"
  },
  {
    "nom": "ZD ACADEMY",
    "adresse": "82 avenue de Charras, 63000, Clermont-Ferrand",
    "latitude": 45.779217,
    "longitude": 3.099495,
    "url_contact": "https://francais.cci-paris-idf.fr/inscription-candidat/contact/882/23",
    "url_inscription": "https://francais.cci-paris-idf.fr/inscription-candidat/centre-882/produit-23"
  },
  {
    "nom": "IFIE",
    "adresse": "Tour Essor 14, rue Scandicci, 93500, PANTIN",
    "latitude": 48.8925643,
    "longitude": 2.3984782,
    "url_contact": "https://francais.cci-paris-idf.fr/inscription-candidat/contact/488/23",
    "url_inscription": "https://francais.cci-paris-idf.fr/inscription-candidat/centre-488/produit-23"
  },
  {
    "nom": "ACIFE",
    "adresse": "44 rue Louveau, 92320, CHÂTILLON",
    "latitude": 48.803165,
    "longitude": 2.2954,
    "url_contact": "https://francais.cci-paris-idf.fr/inscription-candidat/contact/14/23",
    "url_inscription": "https://francais.cci-paris-idf.fr/inscription-candidat/centre-14/produit-23"
  },
  {
    "nom": "AFODIL",
    "adresse": "15 avenue du Président Kennedy, 49300, CHOLET",
    "latitude": 47.046418,
    "longitude": -0.892195,
    "url_contact": "https://francais.cci-paris-idf.fr/inscription-candidat/contact/21/23",
    "url_inscription": "https://francais.cci-paris-idf.fr/inscription-candidat/centre-21/produit-23"
  },
  {
    "nom": "ALLIANCE FRANÇAISE DE LA RÉUNION",
    "adresse": "4 ruelle Tortue, 97400, SAINT-DENIS",
    "latitude": -20.879717,
    "longitude": 55.446144,
    "url_contact": "https://francais.cci-paris-idf.fr/inscription-candidat/contact/893/23",
    "url_inscription": "https://francais.cci-paris-idf.fr/inscription-candidat/centre-893/produit-23"
  },
  {
    "nom": "ASPLEF",
    "adresse": "52 boulevard de Magenta, 75010, PARIS",
    "latitude": 48.8730972,
    "longitude": 2.3591535,
    "url_contact": "https://francais.cci-paris-idf.fr/inscription-candidat/contact/248/23",
    "url_inscription": "https://francais.cci-paris-idf.fr/inscription-candidat/centre-248/produit-23"
  },
  {
    "nom": "AURAL LOGOS",
    "adresse": "950, Avenue Gaston Monnerville, 97354, RÉMIRE-MONTJOLY",
    "latitude": 4.8887533,
    "longitude": -52.2841362,
    "url_contact": "https://francais.cci-paris-idf.fr/inscription-candidat/contact/250/23",
    "url_inscription": "https://francais.cci-paris-idf.fr/inscription-candidat/centre-250/produit-23"
  },
  {
    "nom": "AVD FORMATION",
    "adresse": "8 rue Catulle Mendès, 75017, PARIS",
    "latitude": 48.8868054,
    "longitude": 2.2913121,
    "url_contact": "https://francais.cci-paris-idf.fr/inscription-candidat/contact/251/23",
    "url_inscription": "https://francais.cci-paris-idf.fr/inscription-candidat/centre-251/produit-23"
  },
  {
    "nom": "CAMPUS XIIe AVENUE",
    "adresse": "5 rue de Bruxelles, 12000, RODEZ",
    "latitude": 44.3592266,
    "longitude": 2.5580758,
    "url_contact": "https://francais.cci-paris-idf.fr/inscription-candidat/contact/260/23",
    "url_inscription": "https://francais.cci-paris-idf.fr/inscription-candidat/centre-260/produit-23"
  },
  {
    "nom": "CCI FORMATION BEAUJOLAIS",
    "adresse": "92 rue Henri Dépagneux, 69400, LIMAS",
    "latitude": 45.977463,
    "longitude": 4.716979,
    "url_contact": "https://francais.cci-paris-idf.fr/inscription-candidat/contact/273/23",
    "url_inscription": "https://francais.cci-paris-idf.fr/inscription-candidat/centre-273/produit-23"
  },
  {
    "nom": "CECI Formation",
    "adresse": "27 rue de la Térraudière, 79000, NIORT",
    "latitude": 46.323829,
    "longitude": -0.453645,
    "url_contact": "https://francais.cci-paris-idf.fr/inscription-candidat/contact/976/23",
    "url_inscription": "https://francais.cci-paris-idf.fr/inscription-candidat/centre-976/produit-23"
  },
  {
    "nom": "CECI Formation",
    "adresse": "384 avenue de Verdun, 36044, CHATEAUROUX",
    "latitude": 46.7883551,
    "longitude": 1.7025724,
    "url_contact": "https://francais.cci-paris-idf.fr/inscription-candidat/contact/973/23",
    "url_inscription": "https://francais.cci-paris-idf.fr/inscription-candidat/centre-973/produit-23"
  },
  {
    "nom": "CECI Formation",
    "adresse": "Route de Vielfond, 18100, VIERZON",
    "latitude": 47.2454945,
    "longitude": 2.0685953,
    "url_contact": "https://francais.cci-paris-idf.fr/inscription-candidat/contact/974/23",
    "url_inscription": "https://francais.cci-paris-idf.fr/inscription-candidat/centre-974/produit-23"
  },
  {
    "nom": "CECI Formation",
    "adresse": "1 boulevard de Recouvrance, 17100, SAINTES",
    "latitude": 45.754012,
    "longitude": -0.656131,
    "url_contact": "https://francais.cci-paris-idf.fr/inscription-candidat/contact/975/23",
    "url_inscription": "https://francais.cci-paris-idf.fr/inscription-candidat/centre-975/produit-23"
  },
  {
    "nom": "COOPILOTE",
    "adresse": "17 chemin du Defois, 39100, DOLE",
    "latitude": 47.1062905,
    "longitude": 5.4973299,
    "url_contact": "https://francais.cci-paris-idf.fr/inscription-candidat/contact/379/23",
    "url_inscription": "https://francais.cci-paris-idf.fr/inscription-candidat/centre-379/produit-23"
  },
  {
    "nom": "CREPT FORMATION",
    "adresse": "130 rue Henri Desbals, 31100, TOULOUSE",
    "latitude": 43.580566,
    "longitude": 1.4129282,
    "url_contact": "https://francais.cci-paris-idf.fr/inscription-candidat/contact/831/23",
    "url_inscription": "https://francais.cci-paris-idf.fr/inscription-candidat/centre-831/produit-23"
  },
  {
    "nom": "D.CONSEILS-FORMATIONS",
    "adresse": "74 Boulevard Victor Hugo, 78130, LES MUREAUX",
    "latitude": 48.992897,
    "longitude": 1.911309,
    "url_contact": "https://francais.cci-paris-idf.fr/inscription-candidat/contact/772/23",
    "url_inscription": "https://francais.cci-paris-idf.fr/inscription-candidat/centre-772/produit-23"
  },
  {
    "nom": "EMPLOI SERVICES FORMATION (ARRAS)",
    "adresse": "65/67 Rue d'Hautpoul, 75019, PARIS",
    "latitude": 48.8857803,
    "longitude": 2.38682,
    "url_contact": "https://francais.cci-paris-idf.fr/inscription-candidat/contact/933/23",
    "url_inscription": "https://francais.cci-paris-idf.fr/inscription-candidat/centre-933/produit-23"
  },
  {
    "nom": "ETOILE INSTITUT DE LANGUE",
    "adresse": "38, boulevard Raspail, 75007, PARIS",
    "latitude": 48.8525689,
    "longitude": 2.326323,
    "url_contact": "https://francais.cci-paris-idf.fr/inscription-candidat/contact/610/23",
    "url_inscription": "https://francais.cci-paris-idf.fr/inscription-candidat/centre-610/produit-23"
  },
  {
    "nom": "FRATE FORMATION - ANNEMASSE",
    "adresse": "3 passage Jean Moulin, 74100, ANNEMASSE",
    "latitude": 46.1924322,
    "longitude": 6.2335719,
    "url_contact": "https://francais.cci-paris-idf.fr/inscription-candidat/contact/434/23",
    "url_inscription": "https://francais.cci-paris-idf.fr/inscription-candidat/centre-434/produit-23"
  },
  {
    "nom": "FRATE FORMATION - AUXERRE",
    "adresse": "13 rue Jules Ferry, 89000, AUXERRE",
    "latitude": 47.7971442,
    "longitude": 3.5840282,
    "url_contact": "https://francais.cci-paris-idf.fr/inscription-candidat/contact/435/23",
    "url_inscription": "https://francais.cci-paris-idf.fr/inscription-candidat/centre-435/produit-23"
  },
  {
    "nom": "FRATE FORMATION - BOURG-EN-BRESSE",
    "adresse": "9 rue Colonel Arnaud Beltrame, 01000, BOURG-EN-BRESSE",
    "latitude": 46.2126139,
    "longitude": 5.2392841,
    "url_contact": "https://francais.cci-paris-idf.fr/inscription-candidat/contact/436/23",
    "url_inscription": "https://francais.cci-paris-idf.fr/inscription-candidat/centre-436/produit-23"
  },
  {
    "nom": "FRATE FORMATION - CLERMONT",
    "adresse": "8 rue Pablo Picasso, 63000, CLERMONT-FERRAND",
    "latitude": 45.7653022,
    "longitude": 3.1110848,
    "url_contact": "https://francais.cci-paris-idf.fr/inscription-candidat/contact/438/23",
    "url_inscription": "https://francais.cci-paris-idf.fr/inscription-candidat/centre-438/produit-23"
  },
  {
    "nom": "FRATE FORMATION - ANNECY",
    "adresse": "33 route de Chevennes, 74960, CRAN-GEVRIER",
    "latitude": 45.9040578,
    "longitude": 6.1099541,
    "url_contact": "https://francais.cci-paris-idf.fr/inscription-candidat/contact/432/23",
    "url_inscription": "https://francais.cci-paris-idf.fr/inscription-candidat/centre-432/produit-23"
  },
  {
    "nom": "FRATE FORMATION - DIJON",
    "adresse": "17 rue des Corroyeurs, 21000, DIJON",
    "latitude": 47.3162732,
    "longitude": 5.0328902,
    "url_contact": "https://francais.cci-paris-idf.fr/inscription-candidat/contact/439/23",
    "url_inscription": "https://francais.cci-paris-idf.fr/inscription-candidat/centre-439/produit-23"
  },
  {
    "nom": "FRATE FORMATION - JOIGNY",
    "adresse": "9 boulevard Lesire Lacam, 89300, JOIGNY",
    "latitude": 47.9843773,
    "longitude": 3.3998684,
    "url_contact": "https://francais.cci-paris-idf.fr/inscription-candidat/contact/440/23",
    "url_inscription": "https://francais.cci-paris-idf.fr/inscription-candidat/centre-440/produit-23"
  },
  {
    "nom": "FRATE FORMATION - LE PUY",
    "adresse": "16 rue des Moulins, 43000, LE PUY-EN-VELAY",
    "latitude": 45.038326,
    "longitude": 3.884975,
    "url_contact": "https://francais.cci-paris-idf.fr/inscription-candidat/contact/441/23",
    "url_inscription": "https://francais.cci-paris-idf.fr/inscription-candidat/centre-441/produit-23"
  },
  {
    "nom": "FRATE FORMATION - MACON",
    "adresse": "19 Place de la Baille, 71000, MÂCON",
    "latitude": 46.306654,
    "longitude": 4.832771,
    "url_contact": "https://francais.cci-paris-idf.fr/inscription-candidat/contact/442/23",
    "url_inscription": "https://francais.cci-paris-idf.fr/inscription-candidat/centre-442/produit-23"
  },
  {
    "nom": "FRATE FORMATION - MIRIBEL",
    "adresse": "38 rue Jean Moulin, 01700, MIRIBEL",
    "latitude": 45.8245548,
    "longitude": 4.952279,
    "url_contact": "https://francais.cci-paris-idf.fr/inscription-candidat/contact/443/23",
    "url_inscription": "https://francais.cci-paris-idf.fr/inscription-candidat/centre-443/produit-23"
  },
  {
    "nom": "FRATE FORMATION - MONTCEAU",
    "adresse": "16 rue du Docteur Jeannin, 71300, MONTCEAU-LES-MINES",
    "latitude": 46.6722299,
    "longitude": 4.3611859,
    "url_contact": "https://francais.cci-paris-idf.fr/inscription-candidat/contact/444/23",
    "url_inscription": "https://francais.cci-paris-idf.fr/inscription-candidat/centre-444/produit-23"
  },
  {
    "nom": "FRATE FORMATION - MULHOUSE",
    "adresse": "20 rue de Chemnitz, 68200, MULHOUSE",
    "latitude": 47.747282,
    "longitude": 7.297616,
    "url_contact": "https://francais.cci-paris-idf.fr/inscription-candidat/contact/445/23",
    "url_inscription": "https://francais.cci-paris-idf.fr/inscription-candidat/centre-445/produit-23"
  },
  {
    "nom": "FRATE FORMATION - REIMS",
    "adresse": "14 rue Edouard Mignot, 51100, REIMS",
    "latitude": 49.259975,
    "longitude": 4.021607,
    "url_contact": "https://francais.cci-paris-idf.fr/inscription-candidat/contact/839/23",
    "url_inscription": "https://francais.cci-paris-idf.fr/inscription-candidat/centre-839/produit-23"
  },
  {
    "nom": "FRATE FORMATION - SAINT-FLOUR",
    "adresse": "5 Avenue de Besserette, 15100, SAINT- FLOUR",
    "latitude": 45.036265,
    "longitude": 3.081002,
    "url_contact": "https://francais.cci-paris-idf.fr/inscription-candidat/contact/1016/23",
    "url_inscription": "https://francais.cci-paris-idf.fr/inscription-candidat/centre-1016/produit-23"
  },
  {
    "nom": "FRATE FORMATION - TROYES",
    "adresse": "28 rue Coulommière, 10000, TROYES",
    "latitude": 48.299175,
    "longitude": 4.063242,
    "url_contact": "https://francais.cci-paris-idf.fr/inscription-candidat/contact/447/23",
    "url_inscription": "https://francais.cci-paris-idf.fr/inscription-candidat/centre-447/produit-23"
  },
  {
    "nom": "FRATE FORMATION - VALSERHONE",
    "adresse": "26 rue Joseph Bertola, 01200, VALSERHÔNE",
    "latitude": 46.1074085,
    "longitude": 5.8259711,
    "url_contact": "https://francais.cci-paris-idf.fr/inscription-candidat/contact/448/23",
    "url_inscription": "https://francais.cci-paris-idf.fr/inscription-candidat/centre-448/produit-23"
  },
  {
    "nom": "FRATE FORMATION - VICHY",
    "adresse": "2-4 rue de Paris, 03206, VICHY",
    "latitude": 48.899477,
    "longitude": 2.305319,
    "url_contact": "https://francais.cci-paris-idf.fr/inscription-candidat/contact/449/23",
    "url_inscription": "https://francais.cci-paris-idf.fr/inscription-candidat/centre-449/produit-23"
  },
  {
    "nom": "INTERNATIONAL HOUSE - NANCY",
    "adresse": "15 RUE STE CATHERINE, 54100, NANCY",
    "latitude": 48.6945242,
    "longitude": 6.1862774,
    "url_contact": "https://francais.cci-paris-idf.fr/inscription-candidat/contact/585/23",
    "url_inscription": "https://francais.cci-paris-idf.fr/inscription-candidat/centre-585/produit-23"
  },
  {
    "nom": "KANGOUROU - PARIS",
    "adresse": "5 rue du Général Clergerie, 75116, PARIS",
    "latitude": 48.8695868,
    "longitude": 2.283002,
    "url_contact": "https://francais.cci-paris-idf.fr/inscription-candidat/contact/600/23",
    "url_inscription": "https://francais.cci-paris-idf.fr/inscription-candidat/centre-600/produit-23"
  },
  {
    "nom": "KANGOUROU PROVENCE - TOULOUSE",
    "adresse": "2 Rue Raymond Lizop, 31100, Toulouse",
    "latitude": 43.5664186,
    "longitude": 1.3982315,
    "url_contact": "https://francais.cci-paris-idf.fr/inscription-candidat/contact/866/23",
    "url_inscription": "https://francais.cci-paris-idf.fr/inscription-candidat/centre-866/produit-23"
  },
  {
    "nom": "KANGOUROU PROVENCE - AJACCIO",
    "adresse": "Place Miot, 20000, Ajaccio",
    "latitude": 41.9099724,
    "longitude": 8.7208929,
    "url_contact": "https://francais.cci-paris-idf.fr/inscription-candidat/contact/1008/23",
    "url_inscription": "https://francais.cci-paris-idf.fr/inscription-candidat/centre-1008/produit-23"
  },
  {
    "nom": "KANGOUROU PROVENCE - MARSEILLE",
    "adresse": "7 rue Gaston de Flotte, 13012, Marseille",
    "latitude": 43.2959285,
    "longitude": 5.4236164,
    "url_contact": "https://francais.cci-paris-idf.fr/inscription-candidat/contact/901/23",
    "url_inscription": "https://francais.cci-paris-idf.fr/inscription-candidat/centre-901/produit-23"
  },
  {
    "nom": "KANGOUROU PROVENCE - TOULON",
    "adresse": "22 Rue Victor Clappier, 83000, Toulon",
    "latitude": 43.126299,
    "longitude": 5.9321431,
    "url_contact": "https://francais.cci-paris-idf.fr/inscription-candidat/contact/825/23",
    "url_inscription": "https://francais.cci-paris-idf.fr/inscription-candidat/centre-825/produit-23"
  },
  {
    "nom": "KANGOUROU PROVENCE - AVIGNON",
    "adresse": "31 Rue Paul Manivet, 84000, Avignon",
    "latitude": 43.943488,
    "longitude": 4.809053,
    "url_contact": "https://francais.cci-paris-idf.fr/inscription-candidat/contact/824/23",
    "url_inscription": "https://francais.cci-paris-idf.fr/inscription-candidat/centre-824/produit-23"
  },
  {
    "nom": "KENNEDY FORMATIONS",
    "adresse": "42 Avenue Kennedy, 64200, BIARRITZ",
    "latitude": 43.4728255,
    "longitude": -1.5558825,
    "url_contact": "https://francais.cci-paris-idf.fr/inscription-candidat/contact/607/23",
    "url_inscription": "https://francais.cci-paris-idf.fr/inscription-candidat/centre-607/produit-23"
  },
  {
    "nom": "LAHO FORMATION - LENS",
    "adresse": "Rue Marcel Sembat, 62300, LENS",
    "latitude": 50.4343381,
    "longitude": 2.840138,
    "url_contact": "https://francais.cci-paris-idf.fr/inscription-candidat/contact/669/23",
    "url_inscription": "https://francais.cci-paris-idf.fr/inscription-candidat/centre-669/produit-23"
  },
  {
    "nom": "LEGALUNITE FRANCE",
    "adresse": "18 Terrasse Bellini, 92800, Puteaux",
    "latitude": 48.886922,
    "longitude": 2.2509439,
    "url_contact": "https://francais.cci-paris-idf.fr/inscription-candidat/contact/858/23",
    "url_inscription": "https://francais.cci-paris-idf.fr/inscription-candidat/centre-858/produit-23"
  },
  {
    "nom": "LEO LAGRANGE - CHAMBERY",
    "adresse": "1125 Av. de la Boisse, 73011, CHAMBÉRY",
    "latitude": 45.58001,
    "longitude": 5.912409,
    "url_contact": "https://francais.cci-paris-idf.fr/inscription-candidat/contact/468/23",
    "url_inscription": "https://francais.cci-paris-idf.fr/inscription-candidat/centre-468/produit-23"
  },
  {
    "nom": "LEO LAGRANGE - ECHIROLLES",
    "adresse": "11 Rue Clément Ader, 38130, ÉCHIROLLES",
    "latitude": 45.1360401,
    "longitude": 5.7138063,
    "url_contact": "https://francais.cci-paris-idf.fr/inscription-candidat/contact/469/23",
    "url_inscription": "https://francais.cci-paris-idf.fr/inscription-candidat/centre-469/produit-23"
  },
  {
    "nom": "LEO LAGRANGE - ST-CHAMOND",
    "adresse": "59 rue Maurice Bonnevialle, 42400, SAINT-CHAMOND",
    "latitude": 45.4700501,
    "longitude": 4.5092513,
    "url_contact": "https://francais.cci-paris-idf.fr/inscription-candidat/contact/471/23",
    "url_inscription": "https://francais.cci-paris-idf.fr/inscription-candidat/centre-471/produit-23"
  },
  {
    "nom": "LEO LAGRANGE - VALENCE",
    "adresse": "1 passage de l'argonne, 26000, VALENCE",
    "latitude": 44.9340134,
    "longitude": 4.8976517,
    "url_contact": "https://francais.cci-paris-idf.fr/inscription-candidat/contact/472/23",
    "url_inscription": "https://francais.cci-paris-idf.fr/inscription-candidat/centre-472/produit-23"
  },
  {
    "nom": "METZ FRENCHPRO",
    "adresse": "9 RUE GRAHAM BELL, 57070, METZ",
    "latitude": 49.1052737,
    "longitude": 6.2208622,
    "url_contact": "https://francais.cci-paris-idf.fr/inscription-candidat/contact/626/23",
    "url_inscription": "https://francais.cci-paris-idf.fr/inscription-candidat/centre-626/produit-23"
  },
  {
    "nom": "MRD CONNECT - MANTES",
    "adresse": "7 avenue GAUGUIN, 78120, MANTES LA JOLIE",
    "latitude": 48.636292,
    "longitude": 1.82343,
    "url_contact": "https://francais.cci-paris-idf.fr/inscription-candidat/contact/997/23",
    "url_inscription": "https://francais.cci-paris-idf.fr/inscription-candidat/centre-997/produit-23"
  },
  {
    "nom": "MRD CONNECT - TRAPPES",
    "adresse": "5 avenue PAVLOV, 78190, TRAPPES",
    "latitude": 48.785796,
    "longitude": 1.975248,
    "url_contact": "https://francais.cci-paris-idf.fr/inscription-candidat/contact/902/23",
    "url_inscription": "https://francais.cci-paris-idf.fr/inscription-candidat/centre-902/produit-23"
  },
  {
    "nom": "MYSTORY",
    "adresse": "3 bis avenue de gagny, 93220, GAGNY",
    "latitude": 48.88808,
    "longitude": 2.523359,
    "url_contact": "https://francais.cci-paris-idf.fr/inscription-candidat/contact/876/23",
    "url_inscription": "https://francais.cci-paris-idf.fr/inscription-candidat/centre-876/produit-23"
  },
  {
    "nom": "NEXT UP FORMATION",
    "adresse": "7 avenue Jacques Cartier, 77600, BUSSY-SAINT-GEORGES",
    "latitude": 48.834959,
    "longitude": 2.707707,
    "url_contact": "https://francais.cci-paris-idf.fr/inscription-candidat/contact/638/23",
    "url_inscription": "https://francais.cci-paris-idf.fr/inscription-candidat/centre-638/produit-23"
  },
  {
    "nom": "Potentia Académie",
    "adresse": "774 chemin du pont de la Sable, 84800, L'ISLE-SUR-LA-SORGUE",
    "latitude": 43.932786,
    "longitude": 5.058277,
    "url_contact": "https://francais.cci-paris-idf.fr/inscription-candidat/contact/943/23",
    "url_inscription": "https://francais.cci-paris-idf.fr/inscription-candidat/centre-943/produit-23"
  },
  {
    "nom": "SEA TRAINING",
    "adresse": "73, boulevard de Bezons, 78500, SARTROUVILLE",
    "latitude": 48.943186,
    "longitude": 2.1805545,
    "url_contact": "https://francais.cci-paris-idf.fr/inscription-candidat/contact/666/23",
    "url_inscription": "https://francais.cci-paris-idf.fr/inscription-candidat/centre-666/produit-23"
  },
  {
    "nom": "ZD ACADEMY - PANTIN",
    "adresse": "178 Avenue du Général Leclerc, 93500, Pantin",
    "latitude": 48.9017583,
    "longitude": 2.4138659,
    "url_contact": "https://francais.cci-paris-idf.fr/inscription-candidat/contact/971/23",
    "url_inscription": "https://francais.cci-paris-idf.fr/inscription-candidat/centre-971/produit-23"
  },
  {
    "nom": "ZD ACADEMY - NOGENT",
    "adresse": "2 boulevard Albert 1er, 94130, NOGENT-SUR-MARNE",
    "latitude": 48.8378524,
    "longitude": 2.4935692,
    "url_contact": "https://francais.cci-paris-idf.fr/inscription-candidat/contact/771/23",
    "url_inscription": "https://francais.cci-paris-idf.fr/inscription-candidat/centre-771/produit-23"
  },
  {
    "nom": "LANGUAZUR",
    "adresse": "22 boulevard de la République, 06400, CANNES",
    "latitude": 43.554661,
    "longitude": 7.025072,
    "url_contact": "https://francais.cci-paris-idf.fr/inscription-candidat/contact/928",
    "url_inscription": null
  },
  {
    "nom": "LEO LAGRANGE - ROANNE",
    "adresse": "25 rue Benoit Malon, 42300, ROANNE",
    "latitude": 46.034321,
    "longitude": 4.070016,
    "url_contact": "https://francais.cci-paris-idf.fr/inscription-candidat/contact/1023",
    "url_inscription": null
  },
  {
    "nom": "IBEP - VANNES",
    "adresse": "30 Rue du Baron Fabre, 56000, VANNES",
    "latitude": 47.6587995,
    "longitude": -2.717965,
    "url_contact": "https://francais.cci-paris-idf.fr/inscription-candidat/contact/927",
    "url_inscription": null
  },
  {
    "nom": "EFI RHÔNE ALPES",
    "adresse": "8 bis Impasse marcel cerdan, 69100, VILLEURBANNE",
    "latitude": 45.7660662,
    "longitude": 4.9032171,
    "url_contact": "https://francais.cci-paris-idf.fr/inscription-candidat/contact/1018",
    "url_inscription": null
  },
  {
    "nom": "PLATEFORME COMPETENCES",
    "adresse": "2 rue du Maréchal Leclerc, 78780, MAURECOURT",
    "latitude": 48.9964087,
    "longitude": 2.0625671,
    "url_contact": "https://francais.cci-paris-idf.fr/inscription-candidat/contact/918",
    "url_inscription": null
  },
  {
    "nom": "LSF MONTPELLIER",
    "adresse": "6 rue Foch, 34000, MONTPELLIER",
    "latitude": 43.6109683,
    "longitude": 3.8729892,
    "url_contact": "https://francais.cci-paris-idf.fr/inscription-candidat/contact/619",
    "url_inscription": null
  },
  {
    "nom": "INSTITUT ARITAS",
    "adresse": "86 rue cardinet, 75017, PARIS",
    "latitude": 48.8844651,
    "longitude": 2.309759,
    "url_contact": "https://francais.cci-paris-idf.fr/inscription-candidat/contact/877",
    "url_inscription": null
  },
  {
    "nom": "ACTION PLURIELLE - GARGES",
    "adresse": "43-45 boulevard de la Muette, 95140, GARGES-LÈS-GONESSE",
    "latitude": 48.9780288,
    "longitude": 2.4098779,
    "url_contact": "https://francais.cci-paris-idf.fr/inscription-candidat/contact/16",
    "url_inscription": null
  },
  {
    "nom": "ACTION PLURIELLE - AULNAY",
    "adresse": "1 avenue Antoine Bourdelle, 93600, Aulnay-sous-Bois",
    "latitude": 48.929847,
    "longitude": 2.508871,
    "url_contact": "https://francais.cci-paris-idf.fr/inscription-candidat/contact/805",
    "url_inscription": null
  },
  {
    "nom": "ACTION PLURIELLE - PERSAN",
    "adresse": "68, avenue Gaston Vermeire, 95340, Persan",
    "latitude": 49.14956,
    "longitude": 2.27931,
    "url_contact": "https://francais.cci-paris-idf.fr/inscription-candidat/contact/894",
    "url_inscription": null
  },
  {
    "nom": "ACTION PLURIELLE - GARGES E.",
    "adresse": "36 avenue Frédéric Joliot Curie, 95140, Garges-Lès-Gonesse",
    "latitude": 48.9761036,
    "longitude": 2.4090449,
    "url_contact": "https://francais.cci-paris-idf.fr/inscription-candidat/contact/895",
    "url_inscription": null
  },
  {
    "nom": "ARCS",
    "adresse": "9 rue de Londres, 75009, PARIS",
    "latitude": 48.8767843,
    "longitude": 2.329991,
    "url_contact": "https://francais.cci-paris-idf.fr/inscription-candidat/contact/954",
    "url_inscription": null
  },
  {
    "nom": "ESF PARIS",
    "adresse": "168 Avenue KENNEDY, 62000, ARRAS",
    "latitude": 50.287226,
    "longitude": 2.747263,
    "url_contact": "https://francais.cci-paris-idf.fr/inscription-candidat/contact/998",
    "url_inscription": null
  },
  {
    "nom": "LEO LAGRANGE - TOULOUSE",
    "adresse": "13 RUE MICHEL LABROUSSE, 31100, TOULOUSE",
    "latitude": 43.5684509,
    "longitude": 1.3864213,
    "url_contact": "https://francais.cci-paris-idf.fr/inscription-candidat/contact/482",
    "url_inscription": null
  },
  {
    "nom": "LEO LAGRANGE - AUCH",
    "adresse": "1 allée Lagarrasic, 32000, Auch",
    "latitude": 43.641978,
    "longitude": 0.585831,
    "url_contact": "https://francais.cci-paris-idf.fr/inscription-candidat/contact/847",
    "url_inscription": null
  },
  {
    "nom": "LEO LAGRANGE - TARBES",
    "adresse": "2 avenue Bertrand Barrère, 65000, TARBES",
    "latitude": 43.233972,
    "longitude": 0.073052,
    "url_contact": "https://francais.cci-paris-idf.fr/inscription-candidat/contact/849",
    "url_inscription": null
  },
  {
    "nom": "LEO LAGRANGE - FOIX",
    "adresse": "4, Cours Irénée CROS, 09000, Foix",
    "latitude": 42.966752,
    "longitude": 1.609072,
    "url_contact": "https://francais.cci-paris-idf.fr/inscription-candidat/contact/848",
    "url_inscription": null
  },
  {
    "nom": "LEO LAGRANGE - AGDE",
    "adresse": "2 Rue du Saphir, 34300, AGDE",
    "latitude": 43.3000525,
    "longitude": 3.4753433,
    "url_contact": "https://francais.cci-paris-idf.fr/inscription-candidat/contact/1019",
    "url_inscription": null
  },
  {
    "nom": "LEO LAGRANGE - BEZIERS",
    "adresse": "5/7 Rue Joseph Fabre, 34500, BEZIERS",
    "latitude": 43.3497386,
    "longitude": 3.233392,
    "url_contact": "https://francais.cci-paris-idf.fr/inscription-candidat/contact/1020",
    "url_inscription": null
  },
  {
    "nom": "LEO LAGRANGE - SETE",
    "adresse": "220 avenue du Marechal Juin, 34200, SETE",
    "latitude": 43.4066633,
    "longitude": 3.7037644,
    "url_contact": "https://francais.cci-paris-idf.fr/inscription-candidat/contact/1021",
    "url_inscription": null
  },
  {
    "nom": "FORMALSACE",
    "adresse": "16 AVENUE DE L'EUROPE, 67300, SCHILTIGHEIM",
    "latitude": 48.6130434,
    "longitude": 7.7122337,
    "url_contact": "https://francais.cci-paris-idf.fr/inscription-candidat/contact/968",
    "url_inscription": null
  },
  {
    "nom": "ALZER - VILLEPINTE 2",
    "adresse": "35 allée des Impressionnistes, 93420, VILLEPINTE",
    "latitude": 48.974115,
    "longitude": 2.511074,
    "url_contact": "https://francais.cci-paris-idf.fr/inscription-candidat/contact/635",
    "url_inscription": null
  },
  {
    "nom": "EDUCATION FORMATION - EVREUX",
    "adresse": "63 rue de Rome, 27000, ÉVREUX",
    "latitude": 49.0307098,
    "longitude": 1.1851709,
    "url_contact": "https://francais.cci-paris-idf.fr/inscription-candidat/contact/769",
    "url_inscription": null
  },
  {
    "nom": "EDUCATION FORMATION - ROUEN",
    "adresse": "6, place Waldeck Rousseau, 76140, LE PETIT-QUEVILLY",
    "latitude": 49.424988,
    "longitude": 1.055424,
    "url_contact": "https://francais.cci-paris-idf.fr/inscription-candidat/contact/770",
    "url_inscription": null
  },
  {
    "nom": "CCI PARIS ILE-DE FRANCE",
    "adresse": "5, rue Armand Moisant, 75015, PARIS",
    "latitude": 48.8421372,
    "longitude": 2.3178335,
    "url_contact": "https://francais.cci-paris-idf.fr/inscription-candidat/contact/779",
    "url_inscription": null
  },
  {
    "nom": "LYON EXAM",
    "adresse": "48 rue Quivogne, 69002, LYON",
    "latitude": 45.7425621,
    "longitude": 4.8228869,
    "url_contact": "https://francais.cci-paris-idf.fr/inscription-candidat/contact/477",
    "url_inscription": null
  },
  {
    "nom": "THE PLACE DEBY",
    "adresse": "2 rue de Sault, 38000, GRENOBLE",
    "latitude": 45.1896386,
    "longitude": 5.7262606,
    "url_contact": "https://francais.cci-paris-idf.fr/inscription-candidat/contact/941",
    "url_inscription": null
  },
  {
    "nom": "KANGOUROU PROVENCE - MARSEILLE 2",
    "adresse": "7 rue Gaston de Flotte, 13012, MARSEILLE",
    "latitude": 43.2959285,
    "longitude": 5.4236164,
    "url_contact": "https://francais.cci-paris-idf.fr/inscription-candidat/contact/601",
    "url_inscription": null
  },
  {
    "nom": "KANGOUROU PROVENCE GAP",
    "adresse": "Micropolis Quartier Belle Aureille, 05000, GAP",
    "latitude": 44.5344956,
    "longitude": 6.0515564,
    "url_contact": "https://francais.cci-paris-idf.fr/inscription-candidat/contact/603",
    "url_inscription": null
  },
  {
    "nom": "INTERNATIONAL HOUSE - RIVIERA",
    "adresse": "27 rue Rossini, 06000, NICE",
    "latitude": 43.7002219,
    "longitude": 7.2624921,
    "url_contact": "https://francais.cci-paris-idf.fr/inscription-candidat/contact/584",
    "url_inscription": null
  },
  {
    "nom": "PROVENCE LINGUA",
    "adresse": "13bis Place de l’Hôtel de Ville, 04100, MANOSQUE",
    "latitude": 49.29392,
    "longitude": 2.30551,
    "url_contact": "https://francais.cci-paris-idf.fr/inscription-candidat/contact/662",
    "url_inscription": null
  },
  {
    "nom": "CORYLUS FORMATIONS",
    "adresse": "1 rue Sévigné, 49400, SAUMUR",
    "latitude": 47.253985,
    "longitude": -0.075407,
    "url_contact": "https://francais.cci-paris-idf.fr/inscription-candidat/contact/380",
    "url_inscription": null
  },
  {
    "nom": "CFP PRESQU'ÎLE - LA ROCHE",
    "adresse": "70 rue Chanzy, 85000, LA ROCHE SUR YON",
    "latitude": 46.672699,
    "longitude": -1.431824,
    "url_contact": "https://francais.cci-paris-idf.fr/inscription-candidat/contact/351",
    "url_inscription": null
  },
  {
    "nom": "CFP PRESQU'ÎLE - ST-NAZAIRE",
    "adresse": "6 rue Étoile du matin, 44600, SAINT NAZAIRE",
    "latitude": 47.259627,
    "longitude": -2.269752,
    "url_contact": "https://francais.cci-paris-idf.fr/inscription-candidat/contact/353",
    "url_inscription": null
  },
  {
    "nom": "CLOUD COM 97",
    "adresse": "Lot 16 Les Jardins de Bellevue, 97150, ST-MARTIN",
    "latitude": 18.0814066,
    "longitude": -63.0467131,
    "url_contact": "https://francais.cci-paris-idf.fr/inscription-candidat/contact/365",
    "url_inscription": null
  },
  {
    "nom": "EFFICIA - AUBENAS",
    "adresse": "2 Rue Marc Seguin, 07200, AUBENAS",
    "latitude": 44.608622,
    "longitude": 4.388792,
    "url_contact": "https://francais.cci-paris-idf.fr/inscription-candidat/contact/994",
    "url_inscription": null
  },
  {
    "nom": "CLE",
    "adresse": "44 RUE BERNARD PALISSY, 37000, TOURS",
    "latitude": 47.3925053,
    "longitude": 0.6936096,
    "url_contact": "https://francais.cci-paris-idf.fr/inscription-candidat/contact/782",
    "url_inscription": null
  },
  {
    "nom": "ALLIANCE FRANÇAISE - ROUEN",
    "adresse": "80 boulevard de l'Yser, 76000, ROUEN",
    "latitude": 49.4473813,
    "longitude": 1.0957882,
    "url_contact": "https://francais.cci-paris-idf.fr/inscription-candidat/contact/184",
    "url_inscription": null
  },
  {
    "nom": "COGNITION FORMATION",
    "adresse": "1 boulevard ampère, 13014, MARSEILLE",
    "latitude": 43.336168,
    "longitude": 5.3743,
    "url_contact": "https://francais.cci-paris-idf.fr/inscription-candidat/contact/939",
    "url_inscription": null
  },
  {
    "nom": "CFP PRESQU'ÎLE - REZE",
    "adresse": "1 rue Victor Hugo, 44400, REZÉ",
    "latitude": 47.1888545,
    "longitude": -1.5516644,
    "url_contact": "https://francais.cci-paris-idf.fr/inscription-candidat/contact/352",
    "url_inscription": null
  },
  {
    "nom": "CEFOL MANAGEMENT",
    "adresse": "3 RUE BAYARD, 44100, NANTES",
    "latitude": 47.2107992,
    "longitude": -1.5712788,
    "url_contact": "https://francais.cci-paris-idf.fr/inscription-candidat/contact/991",
    "url_inscription": null
  },
  {
    "nom": "TOUT AU LONG DE LA VIE",
    "adresse": "29 rue Bougère, 49000, ANGERS",
    "latitude": 47.462481,
    "longitude": -0.558233,
    "url_contact": "https://francais.cci-paris-idf.fr/inscription-candidat/contact/929",
    "url_inscription": null
  },
  {
    "nom": "FRATE FORMATION - BESANCON",
    "adresse": "83 rue de Dole, 25000, BESANÇON",
    "latitude": 47.2292327,
    "longitude": 5.991649,
    "url_contact": "https://francais.cci-paris-idf.fr/inscription-candidat/contact/433",
    "url_inscription": null
  },
  {
    "nom": "FRATE FORMATION - NEVERS",
    "adresse": "43 Boulevard du Pré Plantin, 58000, NEVERS",
    "latitude": 46.986194,
    "longitude": 3.123415,
    "url_contact": "https://francais.cci-paris-idf.fr/inscription-candidat/contact/883",
    "url_inscription": null
  },
  {
    "nom": "EFFICIA - MILLAU",
    "adresse": "32 avenue de la République, 12100, MILLAU",
    "latitude": 44.1032295,
    "longitude": 3.0767335,
    "url_contact": "https://francais.cci-paris-idf.fr/inscription-candidat/contact/995",
    "url_inscription": null
  },
  {
    "nom": "EFFICIA - NIMES",
    "adresse": "11T, rue Salomon Reinach, 30000, NIMES",
    "latitude": 43.835327,
    "longitude": 4.375847,
    "url_contact": "https://francais.cci-paris-idf.fr/inscription-candidat/contact/403",
    "url_inscription": null
  },
  {
    "nom": "JAKINOLA",
    "adresse": "69 bd Alsace Lorraine, 64100, BAYONNE",
    "latitude": 43.492006,
    "longitude": -1.4643182,
    "url_contact": "https://francais.cci-paris-idf.fr/inscription-candidat/contact/960",
    "url_inscription": null
  },
  {
    "nom": "FRATE FORMATION - BOURGES",
    "adresse": "Association Tivoli Initiative, 18000, BOURGES",
    "latitude": 0,
    "longitude": 0,
    "url_contact": "https://francais.cci-paris-idf.fr/inscription-candidat/contact/1003",
    "url_inscription": null
  },
  {
    "nom": "MOVE UP FORMATION - CAEN",
    "adresse": "26 Avenue de Thiès, 14000, CAEN",
    "latitude": 49.1988698,
    "longitude": -0.3615222,
    "url_contact": "https://francais.cci-paris-idf.fr/inscription-candidat/contact/985",
    "url_inscription": null
  },
  {
    "nom": "ALIP",
    "adresse": "27 rue Ginoux, 75015, PARIS",
    "latitude": 48.8474964,
    "longitude": 2.2887017,
    "url_contact": "https://francais.cci-paris-idf.fr/inscription-candidat/contact/24",
    "url_inscription": null
  },
  {
    "nom": "NEWDEAL BORDEAUX",
    "adresse": "2 Parvis Gattebourse, 33800, BORDEAUX",
    "latitude": 44.842411,
    "longitude": -0.570437,
    "url_contact": "https://francais.cci-paris-idf.fr/inscription-candidat/contact/637",
    "url_inscription": null
  },
  {
    "nom": "HYPE FORMATION",
    "adresse": "36 rue Pascal, 77100, MEAUX",
    "latitude": 48.960791,
    "longitude": 2.905486,
    "url_contact": "https://francais.cci-paris-idf.fr/inscription-candidat/contact/776",
    "url_inscription": null
  },
  {
    "nom": "ALLIANCE FRANÇAISE - PARIS",
    "adresse": "101 boulevard Raspail, 75270, PARIS",
    "latitude": 48.8462906,
    "longitude": 2.3285418,
    "url_contact": "https://francais.cci-paris-idf.fr/inscription-candidat/contact/165",
    "url_inscription": null
  },
  {
    "nom": "MOVE UP - NOISY",
    "adresse": "7 porte de Neuilly, 93160, NOISY-LE-GRAND",
    "latitude": 48.8429281,
    "longitude": 2.5445023,
    "url_contact": "https://francais.cci-paris-idf.fr/inscription-candidat/contact/766",
    "url_inscription": null
  },
  {
    "nom": "MOVE UP - PANTIN",
    "adresse": "153 avenue Jean Lolive, 93500, Pantin",
    "latitude": 48.8935388,
    "longitude": 2.4140116,
    "url_contact": "https://francais.cci-paris-idf.fr/inscription-candidat/contact/816",
    "url_inscription": null
  },
  {
    "nom": "MOVE UP - ST-DENIS",
    "adresse": "3 rue Jesse Owens, 93200, Saint-Denis",
    "latitude": 48.923457,
    "longitude": 2.364425,
    "url_contact": "https://francais.cci-paris-idf.fr/inscription-candidat/contact/911",
    "url_inscription": null
  },
  {
    "nom": "ELFE - GARGES",
    "adresse": "39 BD DE LA MUETTE, 95140, GARGES-LES-GONESSE",
    "latitude": 48.976723,
    "longitude": 2.414045,
    "url_contact": "https://francais.cci-paris-idf.fr/inscription-candidat/contact/764",
    "url_inscription": null
  },
  {
    "nom": "ELFE - NOGENT",
    "adresse": "110 avenue de l'Europe, 60180, Nogent sur Oise",
    "latitude": 49.2708718,
    "longitude": 2.4833722,
    "url_contact": "https://francais.cci-paris-idf.fr/inscription-candidat/contact/875",
    "url_inscription": null
  },
  {
    "nom": "ISPA LILLE",
    "adresse": "177 rue Nationale, 59000, LILLE",
    "latitude": 50.6323761,
    "longitude": 3.0518843,
    "url_contact": "https://francais.cci-paris-idf.fr/inscription-candidat/contact/996",
    "url_inscription": null
  },
  {
    "nom": "LIL'LANGUES",
    "adresse": "36 place Cormontaigne, 59000, LILLE",
    "latitude": 50.625934,
    "longitude": 3.039709,
    "url_contact": "https://francais.cci-paris-idf.fr/inscription-candidat/contact/616",
    "url_inscription": null
  },
  {
    "nom": "CONSENSO",
    "adresse": "1 rue Georges Gouigoux, 60200, COMPIÈGNE",
    "latitude": 49.4128096,
    "longitude": 2.8282296,
    "url_contact": "https://francais.cci-paris-idf.fr/inscription-candidat/contact/378",
    "url_inscription": null
  },
  {
    "nom": "LAHO - BEAUVAIS",
    "adresse": "18 Rue d'Allonne, 60000, BEAUVAIS",
    "latitude": 49.416128,
    "longitude": 2.1048559,
    "url_contact": "https://francais.cci-paris-idf.fr/inscription-candidat/contact/834",
    "url_inscription": null
  },
  {
    "nom": "AEFTI - AMIENS",
    "adresse": "5 Place d’Auvergne, 80002, AMIENS",
    "latitude": 49.9152267,
    "longitude": 2.254016,
    "url_contact": "https://francais.cci-paris-idf.fr/inscription-candidat/contact/19",
    "url_inscription": null
  },
  {
    "nom": "AEFTI - CREIL",
    "adresse": "1 bis rue Gérard de Nerval, 60100, CREIL",
    "latitude": 49.250488,
    "longitude": 2.474886,
    "url_contact": "https://francais.cci-paris-idf.fr/inscription-candidat/contact/1010",
    "url_inscription": null
  },
  {
    "nom": "AEFTI - ARRAS",
    "adresse": "57 rue de Grigny, 62000, ARRAS",
    "latitude": 50.2822475,
    "longitude": 2.767232,
    "url_contact": "https://francais.cci-paris-idf.fr/inscription-candidat/contact/1011",
    "url_inscription": null
  },
  {
    "nom": "AEFTI - CHATEAU-THIERRY",
    "adresse": "73 Grande rue, 02400, CHATEAU-THIERRY",
    "latitude": 49.005225,
    "longitude": 3.347545,
    "url_contact": "https://francais.cci-paris-idf.fr/inscription-candidat/contact/1012",
    "url_inscription": null
  },
  {
    "nom": "ISPA AMIENS",
    "adresse": "5 rue des Francs-Mûriers, 80000, AMIENS",
    "latitude": 49.8968155,
    "longitude": 2.2996887,
    "url_contact": "https://francais.cci-paris-idf.fr/inscription-candidat/contact/581",
    "url_inscription": null
  },
  {
    "nom": "CECI Formation - STRASBOURG",
    "adresse": "202 Avenue de Colmar, 67100, STRASBOURG",
    "latitude": 48.5576075,
    "longitude": 7.7477045,
    "url_contact": "https://francais.cci-paris-idf.fr/inscription-candidat/contact/282",
    "url_inscription": null
  },
  {
    "nom": "CECI Formation - ANGOULEME",
    "adresse": "70 avenue de Cognac, 16000, ANGOULEME",
    "latitude": 45.65322,
    "longitude": 0.14908,
    "url_contact": "https://francais.cci-paris-idf.fr/inscription-candidat/contact/977",
    "url_inscription": null
  },
  {
    "nom": "FRATE - STRASBOURG",
    "adresse": "31 rue Maréchal Lefebvre, 67100, STRASBOURG",
    "latitude": 48.561249,
    "longitude": 7.741578,
    "url_contact": "https://francais.cci-paris-idf.fr/inscription-candidat/contact/446",
    "url_inscription": null
  },
  {
    "nom": "LINGUAPHONE - MULHOUSE",
    "adresse": "4 rue Fredo Krumnov, 68200, MULHOUSE",
    "latitude": 47.746552,
    "longitude": 7.298605,
    "url_contact": "https://francais.cci-paris-idf.fr/inscription-candidat/contact/617",
    "url_inscription": null
  },
  {
    "nom": "HESIO CONSEIL",
    "adresse": "14, Allée René Fonck, 51100, REIMS",
    "latitude": 49.2346589,
    "longitude": 4.0687607,
    "url_contact": "https://francais.cci-paris-idf.fr/inscription-candidat/contact/760",
    "url_inscription": null
  },
  {
    "nom": "FRATE - CHAUMONT",
    "adresse": "49 Rue Levy Alphandery, 52000, CHAUMONT",
    "latitude": 48.105269,
    "longitude": 5.135601,
    "url_contact": "https://francais.cci-paris-idf.fr/inscription-candidat/contact/437",
    "url_inscription": null
  },
  {
    "nom": "FRATE - ST-DIE",
    "adresse": "7 Rue Laurent Pillard, 88100, ST DIÉ",
    "latitude": 48.2749862,
    "longitude": 6.9617769,
    "url_contact": "https://francais.cci-paris-idf.fr/inscription-candidat/contact/1000",
    "url_inscription": null
  },
  {
    "nom": "MEDITERRANEE FORMATION",
    "adresse": "51 rue Alexandre Blanc, 84000, AVIGNON",
    "latitude": 43.939591,
    "longitude": 4.821579,
    "url_contact": "https://francais.cci-paris-idf.fr/inscription-candidat/contact/624",
    "url_inscription": null
  },
  {
    "nom": "FRATE - LONS",
    "adresse": "11 avenue Thurel, 39000, LONS-LE-SAUNIER",
    "latitude": 46.6728934,
    "longitude": 5.5526959,
    "url_contact": "https://francais.cci-paris-idf.fr/inscription-candidat/contact/431",
    "url_inscription": null
  },
  {
    "nom": "LEO LAGRANGE - CHALON",
    "adresse": "1 avenue de Verdun, 71100, CHALON-SUR-SAONE",
    "latitude": 46.7768025,
    "longitude": 4.8537843,
    "url_contact": "https://francais.cci-paris-idf.fr/inscription-candidat/contact/467",
    "url_inscription": null
  },
  {
    "nom": "LEO LAGRANGE - VAULX",
    "adresse": "15 rue Emile Zola, 69120, VAULX-EN-VELIN",
    "latitude": 45.7777768,
    "longitude": 4.9180438,
    "url_contact": "https://francais.cci-paris-idf.fr/inscription-candidat/contact/473",
    "url_inscription": null
  },
  {
    "nom": "EDUCATION FORMATION - DIEPPE",
    "adresse": "88, avenue des Canadiens, 76200, DIEPPE",
    "latitude": 49.91409,
    "longitude": 1.074792,
    "url_contact": "https://francais.cci-paris-idf.fr/inscription-candidat/contact/1014",
    "url_inscription": null
  },
  {
    "nom": "EDUCATION FORMATION - HAVRE",
    "adresse": "68, boulevard Jules Durand, 76600, LE HAVRE",
    "latitude": 49.4893093,
    "longitude": 0.1558432,
    "url_contact": "https://francais.cci-paris-idf.fr/inscription-candidat/contact/1015",
    "url_inscription": null
  },
  {
    "nom": "FRATE - MONTBELIARD",
    "adresse": "37 avenue des alliés, 25200, MONTBÉLIARD",
    "latitude": 47.5137847,
    "longitude": 6.7985075,
    "url_contact": "https://francais.cci-paris-idf.fr/inscription-candidat/contact/451",
    "url_inscription": null
  },
  {
    "nom": "MOVE UP - LIMOGES",
    "adresse": "18 place Winston Churchill, 87000, LIMOGES",
    "latitude": 45.8322557,
    "longitude": 1.2510911,
    "url_contact": "https://francais.cci-paris-idf.fr/inscription-candidat/contact/986",
    "url_inscription": null
  },
  {
    "nom": "MOVE UP - POITIERS",
    "adresse": "53 avenue du 8 Mai 1945, 86000, POITIERS",
    "latitude": 46.5609652,
    "longitude": 0.314503,
    "url_contact": "https://francais.cci-paris-idf.fr/inscription-candidat/contact/987",
    "url_inscription": null
  },
  {
    "nom": "ABC FORMATION - FRANCONVILLE",
    "adresse": "3 allée du lavoir, 95130, FRANCONVILLE",
    "latitude": 48.980737,
    "longitude": 2.230062,
    "url_contact": "https://francais.cci-paris-idf.fr/inscription-candidat/contact/1",
    "url_inscription": null
  },
  {
    "nom": "AFI",
    "adresse": "9 avenue du Marais, 95100, ARGENTEUIL",
    "latitude": 48.932117,
    "longitude": 2.23395,
    "url_contact": "https://francais.cci-paris-idf.fr/inscription-candidat/contact/775",
    "url_inscription": null
  },
  {
    "nom": "POLYLANGUES - CERGY 2",
    "adresse": "12 rue des chauffours, 95000, CERGY",
    "latitude": 49.0410618,
    "longitude": 2.0794017,
    "url_contact": "https://francais.cci-paris-idf.fr/inscription-candidat/contact/660",
    "url_inscription": null
  },
  {
    "nom": "POLYLANGUES - MASSY",
    "adresse": "23 bis rue Max Dormoy, 91300, Massy",
    "latitude": 48.727853,
    "longitude": 2.271527,
    "url_contact": "https://francais.cci-paris-idf.fr/inscription-candidat/contact/812",
    "url_inscription": null
  },
  {
    "nom": "POLYLANGUES - MELUN",
    "adresse": "5 Bis Place Praslin, 77000, Melun",
    "latitude": 48.536814,
    "longitude": 2.657883,
    "url_contact": "https://francais.cci-paris-idf.fr/inscription-candidat/contact/813",
    "url_inscription": null
  },
  {
    "nom": "POLYLANGUES - ST-DENIS",
    "adresse": "221, avenue du Président Wilson, 93210, Saint denis",
    "latitude": 48.9140166,
    "longitude": 2.3573235,
    "url_contact": "https://francais.cci-paris-idf.fr/inscription-candidat/contact/814",
    "url_inscription": null
  },
  {
    "nom": "POLYLANGUES - LORMONT",
    "adresse": "8 rue du Courant, 33310, LORMONT",
    "latitude": 44.88105,
    "longitude": -0.514502,
    "url_contact": "https://francais.cci-paris-idf.fr/inscription-candidat/contact/815",
    "url_inscription": null
  },
  {
    "nom": "POLYLANGUES - CERGY 3",
    "adresse": "12 rue des Chauffours, 95000, Cergy",
    "latitude": 49.0410618,
    "longitude": 2.0794017,
    "url_contact": "https://francais.cci-paris-idf.fr/inscription-candidat/contact/837",
    "url_inscription": null
  },
  {
    "nom": "ADPE",
    "adresse": "10-12 Avenue du Colonel Rol-Tanguy, 93240, STAINS",
    "latitude": 48.9575253,
    "longitude": 2.3764559,
    "url_contact": "https://francais.cci-paris-idf.fr/inscription-candidat/contact/18",
    "url_inscription": null
  },
  {
    "nom": "EFAC",
    "adresse": "17 place du Général De Gaulle, 93100, MONTREUIL",
    "latitude": 48.868433,
    "longitude": 2.433045,
    "url_contact": "https://francais.cci-paris-idf.fr/inscription-candidat/contact/402",
    "url_inscription": null
  },
  {
    "nom": "ELFE PARIS",
    "adresse": "15 rue Montmartre, 75001, PARIS",
    "latitude": 48.8644355,
    "longitude": 2.3452028,
    "url_contact": "https://francais.cci-paris-idf.fr/inscription-candidat/contact/405",
    "url_inscription": null
  },
  {
    "nom": "CCI MARTINIQUE",
    "adresse": "Rue Aubin Edmond, 97233, SCHOELCHER",
    "latitude": 14.6203339,
    "longitude": -61.098973,
    "url_contact": "https://francais.cci-paris-idf.fr/inscription-candidat/contact/277",
    "url_inscription": null
  },
  {
    "nom": "HORIZONS FRANCOPHONES",
    "adresse": "35 rue Anne-Marie Javouhey, 98713, PAPEETE",
    "latitude": -17.541546,
    "longitude": -149.567528,
    "url_contact": "https://francais.cci-paris-idf.fr/inscription-candidat/contact/463",
    "url_inscription": null
  }
]
